location	Habitat	ARG_Abund_avg	numsubtype_avg	ARG_Abund_sd	numsubtype_sd	sampleInformation	longitude	latitude
SC_Gr_Grass	Gr	533.06171588014	368	66.8129251069638	8.66025403784439	SC.Gr	99.57	31.17
XZ_Gr_Grass	Gr	268.858624660541	377	30.9521797791647	35	XZ.Gr7	97.91	31.36
QH_Gr_Grass	Gr	282.686188929986	385.333333333333	56.8885447062262	26.5769323537035	QH.Gr	99.8	35.32
NM_ZJ_Grass	Gr	480.43989369925	401.666666666667	156.618082457548	16.0104132780304	NM.Gr3	107.08	41.16
HeB_Gr_Grass	Gr	312.762301971489	425	60.4758083176052	4.35889894354067	HeB.Gr	115.27	41.43
NM_LD_Grass	Gr	420.774119581376	409	33.0161540336678	7.81024967590665	NM.Gr2	116.51	44.17
NM_BY_Grass	Gr	578.610294274405	420.666666666667	14.3341066919586	5.13160143944688	NM.Gr1	118.93	44.44
XJ_KKTH_Grass	Gr	281.969138880747	405.666666666667	14.9663988430431	2.3094010767585	XJ.Gr1	89.8	47.19
XJ_ASL_Grass	Gr	327.190904204859	357.666666666667	94.1168004365903	12.0554275466834	XJ.Gr2	86.32	48.26
